id,name,latitude,longitude
1,Nunes Sanfona,-27.589184,-48.520238
2,Vanessa Daniele,-27.591547,-48.579781
3,Lee Khan Bansu,-27.593995,-48.551610
4,Tiago Nery,-27.604675,-48.483342
5,Simone VT,-27.611385,-48.530442